[
  {
    "name": "Charleston", 
    "country": "United States", 
    "longitude": -79.9310512, 
    "continent": "North America", 
    "state": "South Carolina", 
    "latitude": 32.7764749, 
    "id": 0
  }, 
  {
    "name": "Boston", 
    "country": "United States", 
    "longitude": -71.0597732, 
    "continent": "North America", 
    "state": "Massachusetts", 
    "latitude": 42.3584308, 
    "id": 1
  }, 
  {
    "name": "Lake Winnipisseogee", 
    "country": "United States", 
    "longitude": -71.3219147, 
    "continent": "North America", 
    "state": "New Hampshire", 
    "latitude": 43.6093667, 
    "id": 2
  }, 
  {
    "name": "Caldwell Lake George", 
    "country": "United States", 
    "longitude": -73.7186387, 
    "continent": "North America", 
    "state": "New York", 
    "latitude": 43.422655, 
    "id": 3
  }, 
  {
    "name": "Catskills", 
    "country": "", 
    "longitude": 0.0, 
    "continent": "", 
    "state": "", 
    "latitude": 0.0, 
    "id": 4
  }, 
  {
    "name": "Lynchburg", 
    "country": "United States", 
    "longitude": -79.1422464, 
    "continent": "North America", 
    "state": "Virginia", 
    "latitude": 37.4137536, 
    "id": 5
  }, 
  {
    "name": "Farmville", 
    "country": "United States", 
    "longitude": -78.3919401, 
    "continent": "North America", 
    "state": "Virginia", 
    "latitude": 37.3020965, 
    "id": 6
  }, 
  {
    "name": "Liverpool", 
    "country": "United Kingdom", 
    "longitude": -2.9915726, 
    "continent": "Europe", 
    "state": "England", 
    "latitude": 53.4083714, 
    "id": 7
  }, 
  {
    "name": "London", 
    "country": "United Kingdom", 
    "longitude": -0.1277583, 
    "continent": "Europe", 
    "state": "England", 
    "latitude": 51.5073509, 
    "id": 8
  }, 
  {
    "name": "Hopatcong", 
    "country": "United States", 
    "longitude": -74.6593281, 
    "continent": "North America", 
    "state": "New Jersey", 
    "latitude": 40.9328762, 
    "id": 9
  }, 
  {
    "name": "Mohonk", 
    "country": "United States", 
    "longitude": -74.1327355, 
    "continent": "North America", 
    "state": "New York", 
    "latitude": 41.8029232, 
    "id": 10
  }, 
  {
    "name": "Washington DC", 
    "country": "United States", 
    "longitude": -77.0368707, 
    "continent": "North America", 
    "state": "District of Columbia", 
    "latitude": 38.9071923, 
    "id": 11
  }, 
  {
    "name": "West Point", 
    "country": "United States", 
    "longitude": -74.05, 
    "continent": "North America", 
    "state": "New York", 
    "latitude": 41.3667, 
    "id": 12
  }, 
  {
    "name": "Lake Windermere", 
    "country": "United Kingdom", 
    "longitude": -2.9361, 
    "continent": "Europe", 
    "state": "England", 
    "latitude": 54.3583, 
    "id": 13
  }, 
  {
    "name": "Edinborough", 
    "country": "", 
    "longitude": 0.0, 
    "continent": "", 
    "state": "", 
    "latitude": 0.0, 
    "id": 14
  }, 
  {
    "name": "Bar Harbor", 
    "country": "United States", 
    "longitude": -68.2039123, 
    "continent": "North America", 
    "state": "Maine", 
    "latitude": 44.3876119, 
    "id": 15
  }, 
  {
    "name": "Sulfur Springs", 
    "country": "", 
    "longitude": 0.0, 
    "continent": "", 
    "state": "", 
    "latitude": 0.0, 
    "id": 16
  }, 
  {
    "name": "Chalybeate Springs", 
    "country": "United States", 
    "longitude": -78.813905, 
    "continent": "North America", 
    "state": "North Carolina", 
    "latitude": 35.508492, 
    "id": 17
  }, 
  {
    "name": "Sweet Springs", 
    "country": "United States", 
    "longitude": -80.2414, 
    "continent": "North America", 
    "state": "West Virginia", 
    "latitude": 37.6285, 
    "id": 18
  }, 
  {
    "name": "Frohburg", 
    "country": "Germany", 
    "longitude": 12.5581919, 
    "continent": "Europe", 
    "state": "Sachsen", 
    "latitude": 51.0585516, 
    "id": 19
  }, 
  {
    "name": "Reichenbach", 
    "country": "Germany", 
    "longitude": 12.3, 
    "continent": "Europe", 
    "state": "Sachsen", 
    "latitude": 50.616667, 
    "id": 20
  }, 
  {
    "name": "Lugano", 
    "country": "Switzerland", 
    "longitude": 8.9523121, 
    "continent": "Europe", 
    "state": "Ticino", 
    "latitude": 46.0065117, 
    "id": 21
  }, 
  {
    "name": "Mentone/Menton", 
    "country": "", 
    "longitude": 0.0, 
    "continent": "", 
    "state": "", 
    "latitude": 0.0, 
    "id": 22
  }, 
  {
    "name": "Florence", 
    "country": "Italy", 
    "longitude": 11.2480006, 
    "continent": "Europe", 
    "state": "Toscana", 
    "latitude": 43.7710332, 
    "id": 23
  }, 
  {
    "name": "Ashbourne", 
    "country": "United Kingdom", 
    "longitude": -1.732179, 
    "continent": "Europe", 
    "state": "England", 
    "latitude": 53.016626, 
    "id": 24
  }, 
  {
    "name": "Newport", 
    "country": "United States", 
    "longitude": -71.3128285, 
    "continent": "North America", 
    "state": "Rhode Island", 
    "latitude": 41.4901024, 
    "id": 25
  }, 
  {
    "name": "Cannes", 
    "country": "France", 
    "longitude": 7.017369, 
    "continent": "Europe", 
    "state": "Provence-Alpes-C?te d'Azur", 
    "latitude": 43.552847, 
    "id": 26
  }, 
  {
    "name": "Rome", 
    "country": "Italy", 
    "longitude": 12.4801802, 
    "continent": "Europe", 
    "state": "Lazio", 
    "latitude": 41.8723889, 
    "id": 27
  }, 
  {
    "name": "Chemindela Tour", 
    "country": "", 
    "longitude": 0.0, 
    "continent": "", 
    "state": "", 
    "latitude": 0.0, 
    "id": 28
  }, 
  {
    "name": "Avebury", 
    "country": "", 
    "longitude": 0.0, 
    "continent": "", 
    "state": "", 
    "latitude": 0.0, 
    "id": 29
  }, 
  {
    "name": "Courbance(?)", 
    "country": "France", 
    "longitude": 2.213749, 
    "continent": "Europe", 
    "state": "Limousin", 
    "latitude": 46.227638, 
    "id": 30
  }, 
  {
    "name": "R I", 
    "country": "United States", 
    "longitude": -71.4774291, 
    "continent": "North America", 
    "state": "Rhode Island", 
    "latitude": 41.5800945, 
    "id": 31
  }, 
  {
    "name": "Wildmere", 
    "country": "", 
    "longitude": 0.0, 
    "continent": "", 
    "state": "", 
    "latitude": 0.0, 
    "id": 32
  }, 
  {
    "name": "Augustine", 
    "country": "", 
    "longitude": 0.0, 
    "continent": "", 
    "state": "", 
    "latitude": 0.0, 
    "id": 33
  }, 
  {
    "name": "Venice", 
    "country": "Italy", 
    "longitude": 12.3155151, 
    "continent": "Europe", 
    "state": "Veneto", 
    "latitude": 45.4408474, 
    "id": 34
  }, 
  {
    "name": "Camaldoli", 
    "country": "Italy", 
    "longitude": 11.8203778, 
    "continent": "Europe", 
    "state": "Toscana", 
    "latitude": 43.7944916, 
    "id": 35
  }, 
  {
    "name": "Paris", 
    "country": "France", 
    "longitude": 2.3522219, 
    "continent": "Europe", 
    "state": "?le-de-France", 
    "latitude": 48.856614, 
    "id": 36
  }, 
  {
    "name": "The Reuissemont", 
    "country": "France", 
    "longitude": 2.213749, 
    "continent": "Europe", 
    "state": "Limousin", 
    "latitude": 46.227638, 
    "id": 37
  }, 
  {
    "name": "Mount Desert", 
    "country": "United States", 
    "longitude": -68.3193614, 
    "continent": "North America", 
    "state": "Maine", 
    "latitude": 44.3357884, 
    "id": 38
  }, 
  {
    "name": "The Hague", 
    "country": "Netherlands", 
    "longitude": 4.3006999, 
    "continent": "Europe", 
    "state": "Zuid-Holland", 
    "latitude": 52.0704978, 
    "id": 39
  }, 
  {
    "name": "Oban", 
    "country": "", 
    "longitude": 0.0, 
    "continent": "", 
    "state": "", 
    "latitude": 0.0, 
    "id": 40
  }, 
  {
    "name": "Franconia", 
    "country": "United States", 
    "longitude": -71.7479075, 
    "continent": "North America", 
    "state": "New Hampshire", 
    "latitude": 44.2271729, 
    "id": 41
  }, 
  {
    "name": "Euro-trippedthrough6 Europeancountries", 
    "country": "", 
    "longitude": 15.2551187, 
    "continent": "", 
    "state": "", 
    "latitude": 54.5259614, 
    "id": 42
  }, 
  {
    "name": "Awbury (Philadelphia, Pa.); Germantown (Philadelphia, Pa.)", 
    "country": "United States", 
    "longitude": -77.1945247, 
    "continent": "North America", 
    "state": "Pennsylvania", 
    "latitude": 41.2033216, 
    "id": 43
  }, 
  {
    "name": "Newport (R.I.)", 
    "country": "United States", 
    "longitude": -71.3128285, 
    "continent": "North America", 
    "state": "Rhode Island", 
    "latitude": 41.4901024, 
    "id": 44
  }, 
  {
    "name": "England", 
    "country": "United Kingdom", 
    "longitude": -1.1743197, 
    "continent": "Europe", 
    "state": "England", 
    "latitude": 52.3555177, 
    "id": 45
  }, 
  {
    "name": "Philadelphia (Pa.)", 
    "country": "United States", 
    "longitude": -75.163789, 
    "continent": "North America", 
    "state": "Pennsylvania", 
    "latitude": 39.952335, 
    "id": 46
  }, 
  {
    "name": "Dimock (Pa.)", 
    "country": "United States", 
    "longitude": -75.8982517, 
    "continent": "North America", 
    "state": "Pennsylvania", 
    "latitude": 41.7464652, 
    "id": 47
  }, 
  {
    "name": "Pennsylvania", 
    "country": "United States", 
    "longitude": -77.1945247, 
    "continent": "North America", 
    "state": "Pennsylvania", 
    "latitude": 41.2033216, 
    "id": 48
  }, 
  {
    "name": "Westtown Boarding School, PA", 
    "country": "United States", 
    "longitude": -77.1945247, 
    "continent": "North America", 
    "state": "Pennsylvania", 
    "latitude": 41.2033216, 
    "id": 49
  }, 
  {
    "name": "Philadelphia, (Pa. )", 
    "country": "United States", 
    "longitude": -77.1945247, 
    "continent": "North America", 
    "state": "Pennsylvania", 
    "latitude": 41.2033216, 
    "id": 50
  }, 
  {
    "name": "Baltimore (Md.)", 
    "country": "United States", 
    "longitude": -76.6121893, 
    "continent": "North America", 
    "state": "Maryland", 
    "latitude": 39.2903848, 
    "id": 51
  }, 
  {
    "name": "Ann Arbor, MI", 
    "country": "United States", 
    "longitude": -85.6023643, 
    "continent": "North America", 
    "state": "Michigan", 
    "latitude": 44.3148443, 
    "id": 52
  }, 
  {
    "name": "Philadelphia(Pa.)", 
    "country": "United States", 
    "longitude": -75.163789, 
    "continent": "North America", 
    "state": "Pennsylvania", 
    "latitude": 39.952335, 
    "id": 53
  }, 
  {
    "name": "Jamestown, RI", 
    "country": "United States", 
    "longitude": -71.3672755, 
    "continent": "North America", 
    "state": "Rhode Island", 
    "latitude": 41.4970465, 
    "id": 54
  }, 
  {
    "name": "Dundale (Villanova, Pa.)", 
    "country": "United States", 
    "longitude": -77.1945247, 
    "continent": "North America", 
    "state": "Pennsylvania", 
    "latitude": 41.2033216, 
    "id": 55
  }, 
  {
    "name": "Laurel House [Catskill, New York]", 
    "country": "United States", 
    "longitude": -74.0059413, 
    "continent": "North America", 
    "state": "New York", 
    "latitude": 40.7127837, 
    "id": 56
  }, 
  {
    "name": "Haverford College", 
    "country": "United States", 
    "longitude": -75.3062377, 
    "continent": "North America", 
    "state": "Pennsylvania", 
    "latitude": 40.0078604, 
    "id": 57
  }, 
  {
    "name": "Northeast Harbor (Me.)", 
    "country": "United States", 
    "longitude": -68.2903234, 
    "continent": "North America", 
    "state": "Maine", 
    "latitude": 44.2942813, 
    "id": 58
  }, 
  {
    "name": "Westtown (Pa.)", 
    "country": "United States", 
    "longitude": -75.5567821, 
    "continent": "North America", 
    "state": "Pennsylvania", 
    "latitude": 39.9444343, 
    "id": 59
  }, 
  {
    "name": "Steamer Pennsylvania", 
    "country": "United States", 
    "longitude": -77.1945247, 
    "continent": "North America", 
    "state": "Pennsylvania", 
    "latitude": 41.2033216, 
    "id": 60
  }, 
  {
    "name": "Catskill (N.Y.)", 
    "country": "United States", 
    "longitude": -73.8645734, 
    "continent": "North America", 
    "state": "New York", 
    "latitude": 42.2173102, 
    "id": 61
  }, 
  {
    "name": "Bridgewater Cottage, Hampton (Va.)", 
    "country": "United States", 
    "longitude": -76.3452218, 
    "continent": "North America", 
    "state": "Virginia", 
    "latitude": 37.0298687, 
    "id": 62
  }, 
  {
    "name": "New York, NY", 
    "country": "", 
    "longitude": 0.0, 
    "continent": "", 
    "state": "", 
    "latitude": 0.0, 
    "id": 63
  }, 
  {
    "name": "Wilmington, (Del.)", 
    "country": "United States", 
    "longitude": -75.5397878, 
    "continent": "North America", 
    "state": "Delaware", 
    "latitude": 39.7390721, 
    "id": 64
  }, 
  {
    "name": "Caln (Pa: Township); Chester County (Pa.)", 
    "country": "United States", 
    "longitude": -75.7802235, 
    "continent": "North America", 
    "state": "Pennsylvania", 
    "latitude": 39.9909398, 
    "id": 65
  }, 
  {
    "name": "Mountrath (Ireland)", 
    "country": "Ireland", 
    "longitude": -7.4751396, 
    "continent": "Europe", 
    "state": "Leinster", 
    "latitude": 53.0025597, 
    "id": 66
  }, 
  {
    "name": "Paris (France)", 
    "country": "France", 
    "longitude": 2.3522219, 
    "continent": "Europe", 
    "state": "?le-de-France", 
    "latitude": 48.856614, 
    "id": 67
  }, 
  {
    "name": "New Bedford (Mass.)", 
    "country": "United States", 
    "longitude": -70.934205, 
    "continent": "North America", 
    "state": "Massachusetts", 
    "latitude": 41.6362152, 
    "id": 68
  }, 
  {
    "name": "Wilmington, (Del. )", 
    "country": "United States", 
    "longitude": -75.5397878, 
    "continent": "North America", 
    "state": "Delaware", 
    "latitude": 39.7390721, 
    "id": 69
  }, 
  {
    "name": "Locust Shade", 
    "country": "United States", 
    "longitude": -77.3507955, 
    "continent": "North America", 
    "state": "Virginia", 
    "latitude": 38.5335905, 
    "id": 70
  }, 
  {
    "name": "Philadelphia, PA", 
    "country": "United States", 
    "longitude": -77.1945247, 
    "continent": "North America", 
    "state": "Pennsylvania", 
    "latitude": 41.2033216, 
    "id": 71
  }, 
  {
    "name": "Newport, RI", 
    "country": "United States", 
    "longitude": -71.3128285, 
    "continent": "North America", 
    "state": "Rhode Island", 
    "latitude": 41.4901024, 
    "id": 72
  }, 
  {
    "name": "Connymeade?", 
    "country": "", 
    "longitude": 0.0, 
    "continent": "", 
    "state": "", 
    "latitude": 0.0, 
    "id": 73
  }, 
  {
    "name": "Scranton(Pa.)", 
    "country": "United States", 
    "longitude": -75.6624122, 
    "continent": "North America", 
    "state": "Pennsylvania", 
    "latitude": 41.408969, 
    "id": 74
  }, 
  {
    "name": "Lausanne (Switzerland)", 
    "country": "Switzerland", 
    "longitude": 6.6335971, 
    "continent": "Europe", 
    "state": "Vaud", 
    "latitude": 46.5199617, 
    "id": 75
  }, 
  {
    "name": "Springfield, Mass.", 
    "country": "United States", 
    "longitude": -72.589811, 
    "continent": "North America", 
    "state": "Massachusetts", 
    "latitude": 42.1014831, 
    "id": 76
  }, 
  {
    "name": "Philadelphia, (Pa.)", 
    "country": "United States", 
    "longitude": -77.1945247, 
    "continent": "North America", 
    "state": "Pennsylvania", 
    "latitude": 41.2033216, 
    "id": 77
  }, 
  {
    "name": "Lookout Mountain, TN", 
    "country": "United States", 
    "longitude": -86.5804473, 
    "continent": "North America", 
    "state": "Tennessee", 
    "latitude": 35.5174913, 
    "id": 78
  }, 
  {
    "name": "Bristol (Pa.)", 
    "country": "United States", 
    "longitude": -74.8518311, 
    "continent": "North America", 
    "state": "Pennsylvania", 
    "latitude": 40.1006661, 
    "id": 79
  }, 
  {
    "name": "Sunnyside, Mayfield, near Ashbourne, England", 
    "country": "United Kingdom", 
    "longitude": -1.1743197, 
    "continent": "Europe", 
    "state": "England", 
    "latitude": 52.3555177, 
    "id": 80
  }, 
  {
    "name": "London, England", 
    "country": "United Kingdom", 
    "longitude": -1.1743197, 
    "continent": "Europe", 
    "state": "England", 
    "latitude": 52.3555177, 
    "id": 81
  }, 
  {
    "name": "Iowa Falls (Iowa)", 
    "country": "United States", 
    "longitude": -93.2645741, 
    "continent": "North America", 
    "state": "Iowa", 
    "latitude": 42.5198868, 
    "id": 82
  }, 
  {
    "name": "Downingtown (Pa.)", 
    "country": "United States", 
    "longitude": -75.7032742, 
    "continent": "North America", 
    "state": "Pennsylvania", 
    "latitude": 40.0064958, 
    "id": 83
  }, 
  {
    "name": "Florence (Italy)", 
    "country": "Italy", 
    "longitude": 11.2480006, 
    "continent": "Europe", 
    "state": "Toscana", 
    "latitude": 43.7710332, 
    "id": 84
  }, 
  {
    "name": "New Bedford, MA", 
    "country": "United States", 
    "longitude": -70.934205, 
    "continent": "North America", 
    "state": "Massachusetts", 
    "latitude": 41.6362152, 
    "id": 85
  }, 
  {
    "name": "Westtown[?] (Pa.)", 
    "country": "", 
    "longitude": 0.0, 
    "continent": "", 
    "state": "", 
    "latitude": 0.0, 
    "id": 86
  }, 
  {
    "name": "Cape May (N.J.)", 
    "country": "United States", 
    "longitude": -74.9060053, 
    "continent": "North America", 
    "state": "New Jersey", 
    "latitude": 38.9351125, 
    "id": 87
  }, 
  {
    "name": "Atlantic Ocean", 
    "country": "", 
    "longitude": 0.0, 
    "continent": "", 
    "state": "", 
    "latitude": 0.0, 
    "id": 88
  }, 
  {
    "name": "Stoddartsville (Pa.)", 
    "country": "United States", 
    "longitude": -75.6282449, 
    "continent": "North America", 
    "state": "Pennsylvania", 
    "latitude": 41.129807, 
    "id": 89
  }, 
  {
    "name": "Washington (D.C.)", 
    "country": "United States", 
    "longitude": -77.0368707, 
    "continent": "North America", 
    "state": "District of Columbia", 
    "latitude": 38.9071923, 
    "id": 90
  }, 
  {
    "name": "Woodbourne (Susquehanna County, Pa.)", 
    "country": "United States", 
    "longitude": -77.1945247, 
    "continent": "North America", 
    "state": "Pennsylvania", 
    "latitude": 41.2033216, 
    "id": 91
  }, 
  {
    "name": "Montrose (Susquehanna County, Pa.)", 
    "country": "United States", 
    "longitude": -75.8771388, 
    "continent": "North America", 
    "state": "Pennsylvania", 
    "latitude": 41.8339653, 
    "id": 92
  }, 
  {
    "name": "Awbury; Philadelphia (Pa.)", 
    "country": "United States", 
    "longitude": -75.1689876, 
    "continent": "North America", 
    "state": "Pennsylvania", 
    "latitude": 40.050133, 
    "id": 93
  }, 
  {
    "name": "Trenton (N.J.)", 
    "country": "United States", 
    "longitude": -74.7429384, 
    "continent": "North America", 
    "state": "New Jersey", 
    "latitude": 40.2170534, 
    "id": 94
  }, 
  {
    "name": "Schooleys Mountain (N.J.)", 
    "country": "United States", 
    "longitude": -74.8137769, 
    "continent": "North America", 
    "state": "New Jersey", 
    "latitude": 40.7992662, 
    "id": 95
  }, 
  {
    "name": "Monroe County (W. Va.)", 
    "country": "United States", 
    "longitude": -80.5882803, 
    "continent": "North America", 
    "state": "West Virginia", 
    "latitude": 37.5601958, 
    "id": 96
  }, 
  {
    "name": "Clifton (Pa.)", 
    "country": "United States", 
    "longitude": -75.5393155, 
    "continent": "North America", 
    "state": "Pennsylvania", 
    "latitude": 41.2509919, 
    "id": 97
  }, 
  {
    "name": "Philadelphia (Pa).", 
    "country": "United States", 
    "longitude": -75.163789, 
    "continent": "North America", 
    "state": "Pennsylvania", 
    "latitude": 39.952335, 
    "id": 98
  }, 
  {
    "name": "Weston", 
    "country": "", 
    "longitude": 0.0, 
    "continent": "", 
    "state": "", 
    "latitude": 0.0, 
    "id": 99
  }, 
  {
    "name": "New Garden Boarding School", 
    "country": "", 
    "longitude": 0.0, 
    "continent": "", 
    "state": "", 
    "latitude": 0.0, 
    "id": 100
  }, 
  {
    "name": "Chambersburg (Pa.)", 
    "country": "United States", 
    "longitude": -77.6611022, 
    "continent": "North America", 
    "state": "Pennsylvania", 
    "latitude": 39.9375911, 
    "id": 101
  }, 
  {
    "name": "Watertown (N.Y.)", 
    "country": "United States", 
    "longitude": -75.9107565, 
    "continent": "North America", 
    "state": "New York", 
    "latitude": 43.9747838, 
    "id": 102
  }, 
  {
    "name": "Phildelphia (Pa.)", 
    "country": "United States", 
    "longitude": -75.163789, 
    "continent": "North America", 
    "state": "Pennsylvania", 
    "latitude": 39.952335, 
    "id": 103
  }, 
  {
    "name": "Alexandria Bay (N.Y.)", 
    "country": "United States", 
    "longitude": -75.9177309, 
    "continent": "North America", 
    "state": "New York", 
    "latitude": 44.3358836, 
    "id": 104
  }, 
  {
    "name": "Philadelphia (Pa.);", 
    "country": "United States", 
    "longitude": -75.163789, 
    "continent": "North America", 
    "state": "Pennsylvania", 
    "latitude": 39.952335, 
    "id": 105
  }, 
  {
    "name": "Washington (D.C.);", 
    "country": "United States", 
    "longitude": -77.0368707, 
    "continent": "North America", 
    "state": "District of Columbia", 
    "latitude": 38.9071923, 
    "id": 106
  }, 
  {
    "name": "Philadelphia", 
    "country": "United States", 
    "longitude": -75.163789, 
    "continent": "North America", 
    "state": "Pennsylvania", 
    "latitude": 39.952335, 
    "id": 107
  }, 
  {
    "name": "Dublin (Ireland)", 
    "country": "Ireland", 
    "longitude": -6.2603097, 
    "continent": "Europe", 
    "state": "Leinster", 
    "latitude": 53.3498053, 
    "id": 108
  }, 
  {
    "name": "Coalbrookdale (England)", 
    "country": "United Kingdom", 
    "longitude": -2.489425, 
    "continent": "Europe", 
    "state": "England", 
    "latitude": 52.63612, 
    "id": 109
  }, 
  {
    "name": "Montrose", 
    "country": "", 
    "longitude": 0.0, 
    "continent": "", 
    "state": "", 
    "latitude": 0.0, 
    "id": 110
  }, 
  {
    "name": "Awbury", 
    "country": "", 
    "longitude": 0.0, 
    "continent": "", 
    "state": "", 
    "latitude": 0.0, 
    "id": 111
  }, 
  {
    "name": "Westtown", 
    "country": "", 
    "longitude": 0.0, 
    "continent": "", 
    "state": "", 
    "latitude": 0.0, 
    "id": 112
  }, 
  {
    "name": "Connymede", 
    "country": "", 
    "longitude": 0.0, 
    "continent": "", 
    "state": "", 
    "latitude": 0.0, 
    "id": 113
  }, 
  {
    "name": "Connymeade", 
    "country": "", 
    "longitude": 0.0, 
    "continent": "", 
    "state": "", 
    "latitude": 0.0, 
    "id": 114
  }, 
  {
    "name": "Fellsworth", 
    "country": "", 
    "longitude": 0.0, 
    "continent": "", 
    "state": "", 
    "latitude": 0.0, 
    "id": 115
  }, 
  {
    "name": "Beaufort Arms, Tintern (Wales)", 
    "country": "United Kingdom", 
    "longitude": -2.6813226, 
    "continent": "Europe", 
    "state": "Wales", 
    "latitude": 51.6980172, 
    "id": 116
  }, 
  {
    "name": "Rugby", 
    "country": "United Kingdom", 
    "longitude": -1.265032, 
    "continent": "Europe", 
    "state": "England", 
    "latitude": 52.370878, 
    "id": 117
  }, 
  {
    "name": "Lodore", 
    "country": "", 
    "longitude": 0.0, 
    "continent": "", 
    "state": "", 
    "latitude": 0.0, 
    "id": 118
  }, 
  {
    "name": "Westtown (Pa. : Township)", 
    "country": "United States", 
    "longitude": -75.586893, 
    "continent": "North America", 
    "state": "Pennsylvania", 
    "latitude": 39.9327837, 
    "id": 119
  }, 
  {
    "name": "Overbrook", 
    "country": "", 
    "longitude": 0.0, 
    "continent": "", 
    "state": "", 
    "latitude": 0.0, 
    "id": 120
  }, 
  {
    "name": "Cannes (France)", 
    "country": "France", 
    "longitude": 7.017369, 
    "continent": "Europe", 
    "state": "Provence-Alpes-C?te d'Azur", 
    "latitude": 43.552847, 
    "id": 121
  }, 
  {
    "name": "Geneva (Switzerland)", 
    "country": "Switzerland", 
    "longitude": 6.1422961, 
    "continent": "Europe", 
    "state": "Gen?ve", 
    "latitude": 46.1983922, 
    "id": 122
  }, 
  {
    "name": "Marblehead Neck", 
    "country": "", 
    "longitude": 0.0, 
    "continent": "", 
    "state": "", 
    "latitude": 0.0, 
    "id": 123
  }, 
  {
    "name": "Germantown", 
    "country": "United States", 
    "longitude": -77.2716502, 
    "continent": "North America", 
    "state": "Maryland", 
    "latitude": 39.1731621, 
    "id": 124
  }, 
  {
    "name": "Haverford (Pa. : Township)", 
    "country": "United States", 
    "longitude": -75.281691, 
    "continent": "North America", 
    "state": "Pennsylvania", 
    "latitude": 39.974229, 
    "id": 125
  }, 
  {
    "name": "West Chester (Pa.)", 
    "country": "United States", 
    "longitude": -75.6054882, 
    "continent": "North America", 
    "state": "Pennsylvania", 
    "latitude": 39.9606643, 
    "id": 126
  }, 
  {
    "name": "Rome (Italy)", 
    "country": "Italy", 
    "longitude": 12.4801802, 
    "continent": "Europe", 
    "state": "Lazio", 
    "latitude": 41.8723889, 
    "id": 127
  }, 
  {
    "name": "Bloomsdale", 
    "country": "", 
    "longitude": 0.0, 
    "continent": "", 
    "state": "", 
    "latitude": 0.0, 
    "id": 128
  }, 
  {
    "name": "Bloomsdale (Pa.)", 
    "country": "United States", 
    "longitude": -74.854454, 
    "continent": "North America", 
    "state": "Pennsylvania", 
    "latitude": 40.1281088, 
    "id": 129
  }, 
  {
    "name": "Woodbourne; Philadelphia (Pa.)", 
    "country": "United States", 
    "longitude": -74.8891667, 
    "continent": "North America", 
    "state": "Pennsylvania", 
    "latitude": 40.1925, 
    "id": 130
  }, 
  {
    "name": "Atlantic City (N.J.)", 
    "country": "United States", 
    "longitude": -74.4229266, 
    "continent": "North America", 
    "state": "New Jersey", 
    "latitude": 39.3642834, 
    "id": 131
  }, 
  {
    "name": "Elizabethtown (N.Y.)", 
    "country": "United States", 
    "longitude": -73.5904478, 
    "continent": "North America", 
    "state": "New York", 
    "latitude": 44.2163337, 
    "id": 132
  }, 
  {
    "name": "Delaware Water Gap (Pa.); Philadelphia (Pa.)", 
    "country": "United States", 
    "longitude": -75.1429563, 
    "continent": "North America", 
    "state": "Pennsylvania", 
    "latitude": 40.9792619, 
    "id": 133
  }, 
  {
    "name": "Liverpool (England)", 
    "country": "United Kingdom", 
    "longitude": -2.9915726, 
    "continent": "Europe", 
    "state": "England", 
    "latitude": 53.4083714, 
    "id": 134
  }, 
  {
    "name": "Madeira", 
    "country": "Portugal", 
    "longitude": -16.9594723, 
    "continent": "Africa", 
    "state": "Regi?o Aut?noma da Madeira", 
    "latitude": 32.7607074, 
    "id": 135
  }, 
  {
    "name": "Calcon Hook", 
    "country": "United States", 
    "longitude": -75.2630473, 
    "continent": "North America", 
    "state": "Pennsylvania", 
    "latitude": 39.9015003, 
    "id": 136
  }, 
  {
    "name": "Harrisburg (Pa.)", 
    "country": "United States", 
    "longitude": -76.8867008, 
    "continent": "North America", 
    "state": "Pennsylvania", 
    "latitude": 40.2731911, 
    "id": 137
  }, 
  {
    "name": "Chester (Pa.)", 
    "country": "United States", 
    "longitude": -75.3557457, 
    "continent": "North America", 
    "state": "Pennsylvania", 
    "latitude": 39.849557, 
    "id": 138
  }, 
  {
    "name": "Deal (N.J.)", 
    "country": "United States", 
    "longitude": -74.0006927, 
    "continent": "North America", 
    "state": "New Jersey", 
    "latitude": 40.243168, 
    "id": 139
  }, 
  {
    "name": "Haverford (Pa.)", 
    "country": "United States", 
    "longitude": -75.3208107, 
    "continent": "North America", 
    "state": "Pennsylvania", 
    "latitude": 40.0022406, 
    "id": 140
  }, 
  {
    "name": "Penn College", 
    "country": "", 
    "longitude": 0.0, 
    "continent": "", 
    "state": "", 
    "latitude": 0.0, 
    "id": 141
  }, 
  {
    "name": "Boston (Mass.)", 
    "country": "United States", 
    "longitude": -71.0597732, 
    "continent": "North America", 
    "state": "Massachusetts", 
    "latitude": 42.3584308, 
    "id": 142
  }, 
  {
    "name": "Woodbourne", 
    "country": "", 
    "longitude": 0.0, 
    "continent": "", 
    "state": "", 
    "latitude": 0.0, 
    "id": 143
  }, 
  {
    "name": "Bradford (Pa.)", 
    "country": "United States", 
    "longitude": -78.649163, 
    "continent": "North America", 
    "state": "Pennsylvania", 
    "latitude": 41.9564953, 
    "id": 144
  }, 
  {
    "name": "Weston School", 
    "country": "", 
    "longitude": 0.0, 
    "continent": "", 
    "state": "", 
    "latitude": 0.0, 
    "id": 145
  }, 
  {
    "name": "East Marlborough (Pa.)", 
    "country": "United States", 
    "longitude": -75.7255192, 
    "continent": "North America", 
    "state": "Pennsylvania", 
    "latitude": 39.8800869, 
    "id": 146
  }, 
  {
    "name": "Germantown (Pa.)", 
    "country": "United States", 
    "longitude": -75.1749671, 
    "continent": "North America", 
    "state": "Pennsylvania", 
    "latitude": 40.028521, 
    "id": 147
  }, 
  {
    "name": "Overbrook (Pa.)", 
    "country": "United States", 
    "longitude": -75.2420722, 
    "continent": "North America", 
    "state": "Pennsylvania", 
    "latitude": 39.9845206, 
    "id": 148
  }, 
  {
    "name": "Church Lane (Philadelphia, Pa.)", 
    "country": "United States", 
    "longitude": -77.1945247, 
    "continent": "North America", 
    "state": "Pennsylvania", 
    "latitude": 41.2033216, 
    "id": 149
  }, 
  {
    "name": "Maple Shade (Odessa, N.Y.)", 
    "country": "United States", 
    "longitude": -74.0059413, 
    "continent": "North America", 
    "state": "New York", 
    "latitude": 40.7127837, 
    "id": 150
  }, 
  {
    "name": "Kensington", 
    "country": "United Kingdom", 
    "longitude": -0.1932952, 
    "continent": "Europe", 
    "state": "England", 
    "latitude": 51.5009945, 
    "id": 151
  }, 
  {
    "name": "Brooklyn (N.Y.)", 
    "country": "United States", 
    "longitude": -73.9441579, 
    "continent": "North America", 
    "state": "New York", 
    "latitude": 40.6781784, 
    "id": 152
  }, 
  {
    "name": "Roxborough (Philadelphia, Pa.)", 
    "country": "United States", 
    "longitude": -77.1945247, 
    "continent": "North America", 
    "state": "Pennsylvania", 
    "latitude": 41.2033216, 
    "id": 153
  }, 
  {
    "name": "Pocono Inn (Pocono(Pa.).)", 
    "country": "United States", 
    "longitude": -75.3062326, 
    "continent": "North America", 
    "state": "Pennsylvania", 
    "latitude": 41.0632959, 
    "id": 154
  }, 
  {
    "name": "East Bradford (Pa. : Township)", 
    "country": "United States", 
    "longitude": -78.6707238, 
    "continent": "North America", 
    "state": "Pennsylvania", 
    "latitude": 41.9652518, 
    "id": 155
  }, 
  {
    "name": "Radnor (Pa.)", 
    "country": "United States", 
    "longitude": -75.3599105, 
    "continent": "North America", 
    "state": "Pennsylvania", 
    "latitude": 40.0462208, 
    "id": 156
  }, 
  {
    "name": "Little Falls (N.Y.)", 
    "country": "United States", 
    "longitude": -74.8595957, 
    "continent": "North America", 
    "state": "New York", 
    "latitude": 43.0434039, 
    "id": 157
  }, 
  {
    "name": "Salem (Mass.)", 
    "country": "United States", 
    "longitude": -70.8967155, 
    "continent": "North America", 
    "state": "Massachusetts", 
    "latitude": 42.51954, 
    "id": 158
  }, 
  {
    "name": "Providence (R.I.)", 
    "country": "United States", 
    "longitude": -71.4128343, 
    "continent": "North America", 
    "state": "Rhode Island", 
    "latitude": 41.8239891, 
    "id": 159
  }, 
  {
    "name": "Manitou Springs (Colo.)", 
    "country": "United States", 
    "longitude": -104.9171989, 
    "continent": "North America", 
    "state": "Colorado", 
    "latitude": 38.8597127, 
    "id": 160
  }, 
  {
    "name": "Bryn Mawr (Pa.)", 
    "country": "United States", 
    "longitude": -75.3151772, 
    "continent": "North America", 
    "state": "Pennsylvania", 
    "latitude": 40.0230237, 
    "id": 161
  }, 
  {
    "name": "Flushing (N.Y.)", 
    "country": "United States", 
    "longitude": -73.833079, 
    "continent": "North America", 
    "state": "New York", 
    "latitude": 40.7674987, 
    "id": 162
  }, 
  {
    "name": "Cortina d'Ampezzo (Italy)", 
    "country": "Italy", 
    "longitude": 12.1356524, 
    "continent": "Europe", 
    "state": "Veneto", 
    "latitude": 46.5404711, 
    "id": 163
  }, 
  {
    "name": "Hudson (N.Y.)", 
    "country": "United States", 
    "longitude": -73.790959, 
    "continent": "North America", 
    "state": "New York", 
    "latitude": 42.2528649, 
    "id": 164
  }, 
  {
    "name": "Alexandria (Va.)", 
    "country": "United States", 
    "longitude": -77.0469214, 
    "continent": "North America", 
    "state": "Virginia", 
    "latitude": 38.8048355, 
    "id": 165
  }, 
  {
    "name": "New Castle (Del.)", 
    "country": "United States", 
    "longitude": -75.5668166, 
    "continent": "North America", 
    "state": "Delaware", 
    "latitude": 39.6620397, 
    "id": 166
  }, 
  {
    "name": "Rosemont (Pa.)", 
    "country": "United States", 
    "longitude": -75.3237979, 
    "continent": "North America", 
    "state": "Pennsylvania", 
    "latitude": 40.0256664, 
    "id": 167
  }, 
  {
    "name": "Wilmington (Del.)", 
    "country": "United States", 
    "longitude": -75.5397878, 
    "continent": "North America", 
    "state": "Delaware", 
    "latitude": 39.7390721, 
    "id": 168
  }, 
  {
    "name": "New York (N.Y.)", 
    "country": "United States", 
    "longitude": -74.0059413, 
    "continent": "North America", 
    "state": "New York", 
    "latitude": 40.7127837, 
    "id": 169
  }, 
  {
    "name": "Susquehanna County (Pa.)", 
    "country": "United States", 
    "longitude": -75.8069082, 
    "continent": "North America", 
    "state": "Pennsylvania", 
    "latitude": 41.745553, 
    "id": 170
  }, 
  {
    "name": "London (England)", 
    "country": "United Kingdom", 
    "longitude": -0.1277583, 
    "continent": "Europe", 
    "state": "England", 
    "latitude": 51.5073509, 
    "id": 171
  }, 
  {
    "name": "Point Pleasant (Pa.)", 
    "country": "United States", 
    "longitude": -75.0663, 
    "continent": "North America", 
    "state": "Pennsylvania", 
    "latitude": 40.4226, 
    "id": 172
  }, 
  {
    "name": "Binghamton (N.Y.)", 
    "country": "United States", 
    "longitude": -75.9179738, 
    "continent": "North America", 
    "state": "New York", 
    "latitude": 42.0986867, 
    "id": 173
  }, 
  {
    "name": "Hague (Netherlands)", 
    "country": "Netherlands", 
    "longitude": 4.3006999, 
    "continent": "Europe", 
    "state": "Zuid-Holland", 
    "latitude": 52.0704978, 
    "id": 174
  }, 
  {
    "name": "Shropshire (England)", 
    "country": "United Kingdom", 
    "longitude": -2.7037501, 
    "continent": "Europe", 
    "state": "England", 
    "latitude": 52.5864845, 
    "id": 175
  }, 
  {
    "name": "Conanicut (Island : Rhode Island)", 
    "country": "United States", 
    "longitude": -71.3758871, 
    "continent": "North America", 
    "state": "Rhode Island", 
    "latitude": 41.5376018, 
    "id": 176
  }, 
  {
    "name": "Franconia (N.H.)", 
    "country": "United States", 
    "longitude": -71.7479075, 
    "continent": "North America", 
    "state": "New Hampshire", 
    "latitude": 44.2271729, 
    "id": 177
  }, 
  {
    "name": "Venice (Italy)", 
    "country": "Italy", 
    "longitude": 12.3155151, 
    "continent": "Europe", 
    "state": "Veneto", 
    "latitude": 45.4408474, 
    "id": 178
  }, 
  {
    "name": "Jamestown (R.I.)", 
    "country": "United States", 
    "longitude": -71.3672755, 
    "continent": "North America", 
    "state": "Rhode Island", 
    "latitude": 41.4970465, 
    "id": 179
  }, 
  {
    "name": "Golspie (Scotland)", 
    "country": "United Kingdom", 
    "longitude": -3.976086, 
    "continent": "Europe", 
    "state": "Scotland", 
    "latitude": 57.973406, 
    "id": 180
  }, 
  {
    "name": "Conowingo Reservoir (Md. and Pa.)", 
    "country": "", 
    "longitude": -76.2421185, 
    "continent": "", 
    "state": "", 
    "latitude": 39.7466168, 
    "id": 181
  }, 
  {
    "name": "Charleston (S.C.)", 
    "country": "United States", 
    "longitude": -79.9310512, 
    "continent": "North America", 
    "state": "South Carolina", 
    "latitude": 32.7764749, 
    "id": 182
  }, 
  {
    "name": "Chester (England)", 
    "country": "United Kingdom", 
    "longitude": -2.893075, 
    "continent": "Europe", 
    "state": "England", 
    "latitude": 53.193392, 
    "id": 183
  }, 
  {
    "name": "Tottenham (England)", 
    "country": "United Kingdom", 
    "longitude": -0.0722785, 
    "continent": "Europe", 
    "state": "England", 
    "latitude": 51.6049674, 
    "id": 184
  }, 
  {
    "name": "Moorestown (N.J.)", 
    "country": "United States", 
    "longitude": -74.948886, 
    "continent": "North America", 
    "state": "New Jersey", 
    "latitude": 39.9688817, 
    "id": 185
  }, 
  {
    "name": "Saint Augustine (Fla.)", 
    "country": "United States", 
    "longitude": -81.311667, 
    "continent": "North America", 
    "state": "Florida", 
    "latitude": 29.895833, 
    "id": 186
  }, 
  {
    "name": "Lynton (England)", 
    "country": "United Kingdom", 
    "longitude": -3.840102, 
    "continent": "Europe", 
    "state": "England", 
    "latitude": 51.2296539, 
    "id": 187
  }, 
  {
    "name": "Overlook (N.Y.)", 
    "country": "", 
    "longitude": 0.0, 
    "continent": "", 
    "state": "", 
    "latitude": 0.0, 
    "id": 188
  }, 
  {
    "name": "York (England)", 
    "country": "United Kingdom", 
    "longitude": -1.0872979, 
    "continent": "Europe", 
    "state": "England", 
    "latitude": 53.9599651, 
    "id": 189
  }, 
  {
    "name": "Windermere (England)", 
    "country": "United Kingdom", 
    "longitude": -2.906785, 
    "continent": "Europe", 
    "state": "England", 
    "latitude": 54.380685, 
    "id": 190
  }, 
  {
    "name": "Greenbrier County (W. Va.)", 
    "country": "United States", 
    "longitude": -80.543845, 
    "continent": "North America", 
    "state": "West Virginia", 
    "latitude": 38.0198478, 
    "id": 191
  }, 
  {
    "name": "Richfield (N.Y.)", 
    "country": "United States", 
    "longitude": -75.0540468, 
    "continent": "North America", 
    "state": "New York", 
    "latitude": 42.8572942, 
    "id": 192
  }, 
  {
    "name": "Tannersville (N.Y.)", 
    "country": "United States", 
    "longitude": -74.1337508, 
    "continent": "North America", 
    "state": "New York", 
    "latitude": 42.1956438, 
    "id": 193
  }, 
  {
    "name": "Surf House", 
    "country": "", 
    "longitude": 0.0, 
    "continent": "", 
    "state": "", 
    "latitude": 0.0, 
    "id": 194
  }, 
  {
    "name": "School House Lane", 
    "country": "", 
    "longitude": 0.0, 
    "continent": "", 
    "state": "", 
    "latitude": 0.0, 
    "id": 195
  }, 
  {
    "name": "Devon Inn", 
    "country": "", 
    "longitude": 0.0, 
    "continent": "", 
    "state": "", 
    "latitude": 0.0, 
    "id": 196
  }, 
  {
    "name": "Silver Lake (Pa. : Township)", 
    "country": "United States", 
    "longitude": -76.8710151, 
    "continent": "North America", 
    "state": "Pennsylvania", 
    "latitude": 40.1362933, 
    "id": 197
  }, 
  {
    "name": "West Bradford, Chester County Pa", 
    "country": "United States", 
    "longitude": -75.8069082, 
    "continent": "North America", 
    "state": "Pennsylvania", 
    "latitude": 40.0010204, 
    "id": 198
  }, 
  {
    "name": "Birmingham, Chester County Pa", 
    "country": "United States", 
    "longitude": -75.8069082, 
    "continent": "North America", 
    "state": "Pennsylvania", 
    "latitude": 40.0010204, 
    "id": 199
  }, 
  {
    "name": "Stoddartsville", 
    "country": "United States", 
    "longitude": -75.6282449, 
    "continent": "North America", 
    "state": "Pennsylvania", 
    "latitude": 41.129807, 
    "id": 200
  }, 
  {
    "name": "Fairfield (Pa.)", 
    "country": "United States", 
    "longitude": -77.3685984, 
    "continent": "North America", 
    "state": "Pennsylvania", 
    "latitude": 39.7873173, 
    "id": 201
  }, 
  {
    "name": "Profile House", 
    "country": "", 
    "longitude": 0.0, 
    "continent": "", 
    "state": "", 
    "latitude": 0.0, 
    "id": 202
  }, 
  {
    "name": "Edinburgh (Scotland)", 
    "country": "United Kingdom", 
    "longitude": -3.188267, 
    "continent": "Europe", 
    "state": "Scotland", 
    "latitude": 55.953252, 
    "id": 203
  }, 
  {
    "name": "Frohburg (Germany)", 
    "country": "Germany", 
    "longitude": 12.5581919, 
    "continent": "Europe", 
    "state": "Sachsen", 
    "latitude": 51.0585516, 
    "id": 204
  }, 
  {
    "name": "Lugano (Switzerland)", 
    "country": "Switzerland", 
    "longitude": 8.9523121, 
    "continent": "Europe", 
    "state": "Ticino", 
    "latitude": 46.0065117, 
    "id": 205
  }, 
  {
    "name": "Reichenbach (Switzerland)", 
    "country": "Switzerland", 
    "longitude": 7.69409, 
    "continent": "Europe", 
    "state": "Bern", 
    "latitude": 46.62544, 
    "id": 206
  }, 
  {
    "name": "Menton (France)", 
    "country": "France", 
    "longitude": 7.49754, 
    "continent": "Europe", 
    "state": "Provence-Alpes-C?te d'Azur", 
    "latitude": 43.774481, 
    "id": 207
  }, 
  {
    "name": "Genoa (Italy)", 
    "country": "Italy", 
    "longitude": 8.946256, 
    "continent": "Europe", 
    "state": "Liguria", 
    "latitude": 44.4056499, 
    "id": 208
  }, 
  {
    "name": "Naples (Italy)", 
    "country": "Italy", 
    "longitude": 14.2681244, 
    "continent": "Europe", 
    "state": "Campania", 
    "latitude": 40.8517746, 
    "id": 209
  }, 
  {
    "name": "Cambridge (England)", 
    "country": "United Kingdom", 
    "longitude": 0.121817, 
    "continent": "Europe", 
    "state": "England", 
    "latitude": 52.205337, 
    "id": 210
  }, 
  {
    "name": "Saranac Lake (N.Y.)", 
    "country": "United States", 
    "longitude": -74.1312662, 
    "continent": "North America", 
    "state": "New York", 
    "latitude": 44.329496, 
    "id": 211
  }, 
  {
    "name": "Montgomery County (Pa.)", 
    "country": "United States", 
    "longitude": -75.3878525, 
    "continent": "North America", 
    "state": "Pennsylvania", 
    "latitude": 40.2290075, 
    "id": 212
  }, 
  {
    "name": "White Sulphur Springs (W. Va.)", 
    "country": "United States", 
    "longitude": -80.2975704, 
    "continent": "North America", 
    "state": "West Virginia", 
    "latitude": 37.7965107, 
    "id": 213
  }, 
  {
    "name": "Lechauweki Springs (Pa.)", 
    "country": "United States", 
    "longitude": -75.4021928, 
    "continent": "North America", 
    "state": "Pennsylvania", 
    "latitude": 40.5958918, 
    "id": 214
  }, 
  {
    "name": "Long Branch (N.J.)", 
    "country": "United States", 
    "longitude": -73.9923596, 
    "continent": "North America", 
    "state": "New Jersey", 
    "latitude": 40.3042778, 
    "id": 215
  }, 
  {
    "name": "Peace Dale (R.I.)", 
    "country": "United States", 
    "longitude": -71.4986694, 
    "continent": "North America", 
    "state": "Rhode Island", 
    "latitude": 41.4512129, 
    "id": 216
  }, 
  {
    "name": "Old Point Comfort (Va.)", 
    "country": "", 
    "longitude": -76.3113315, 
    "continent": "", 
    "state": "", 
    "latitude": 37.0004248, 
    "id": 217
  }, 
  {
    "name": "Norfolk (Va.)", 
    "country": "United States", 
    "longitude": -76.2858726, 
    "continent": "North America", 
    "state": "Virginia", 
    "latitude": 36.8507689, 
    "id": 218
  }, 
  {
    "name": "Grenille (France)", 
    "country": "France", 
    "longitude": 5.724524, 
    "continent": "Europe", 
    "state": "Rh?ne-Alpes", 
    "latitude": 45.188529, 
    "id": 219
  }, 
  {
    "name": "Burtlington", 
    "country": "United States", 
    "longitude": -73.212072, 
    "continent": "North America", 
    "state": "Vermont", 
    "latitude": 44.4758825, 
    "id": 220
  }, 
  {
    "name": "Airdrie", 
    "country": "", 
    "longitude": 0.0, 
    "continent": "", 
    "state": "", 
    "latitude": 0.0, 
    "id": 221
  }, 
  {
    "name": "Blythewood", 
    "country": "", 
    "longitude": 0.0, 
    "continent": "", 
    "state": "", 
    "latitude": 0.0, 
    "id": 222
  }, 
  {
    "name": "Fall River (Mass.)", 
    "country": "United States", 
    "longitude": -71.1550451, 
    "continent": "North America", 
    "state": "Massachusetts", 
    "latitude": 41.7014912, 
    "id": 223
  }, 
  {
    "name": "Mohonk Lake (N.Y.)", 
    "country": "United States", 
    "longitude": -74.1573929, 
    "continent": "North America", 
    "state": "New York", 
    "latitude": 41.766329, 
    "id": 224
  }, 
  {
    "name": "Olney", 
    "country": "United Kingdom", 
    "longitude": -0.7013779, 
    "continent": "Europe", 
    "state": "England", 
    "latitude": 52.154738, 
    "id": 225
  }, 
  {
    "name": "Rutland (Vt.)", 
    "country": "United States", 
    "longitude": -72.9726065, 
    "continent": "North America", 
    "state": "Vermont", 
    "latitude": 43.6106237, 
    "id": 226
  }, 
  {
    "name": "Gorham (Me.)", 
    "country": "United States", 
    "longitude": -70.4442252, 
    "continent": "North America", 
    "state": "Maine", 
    "latitude": 43.6795314, 
    "id": 227
  }, 
  {
    "name": "Center Harbor (N.H.)", 
    "country": "United States", 
    "longitude": -71.463611, 
    "continent": "North America", 
    "state": "New Hampshire", 
    "latitude": 43.708056, 
    "id": 228
  }, 
  {
    "name": "Mary Powell (ship)", 
    "country": "", 
    "longitude": -39.462891, 
    "continent": "", 
    "state": "", 
    "latitude": 35.746512, 
    "id": 229
  }, 
  {
    "name": "Hopatcong (N.J.)", 
    "country": "United States", 
    "longitude": -74.6593281, 
    "continent": "North America", 
    "state": "New Jersey", 
    "latitude": 40.9328762, 
    "id": 230
  }, 
  {
    "name": "Snow Shoe (Pa.)", 
    "country": "United States", 
    "longitude": -77.9494488, 
    "continent": "North America", 
    "state": "Pennsylvania", 
    "latitude": 41.0308914, 
    "id": 231
  }, 
  {
    "name": "Jersey City (N.J.)", 
    "country": "United States", 
    "longitude": -74.0776417, 
    "continent": "North America", 
    "state": "New Jersey", 
    "latitude": 40.7281575, 
    "id": 232
  }, 
  {
    "name": "Overbrook (Philadelphia, Pa.)", 
    "country": "United States", 
    "longitude": -77.1945247, 
    "continent": "North America", 
    "state": "Pennsylvania", 
    "latitude": 41.2033216, 
    "id": 233
  }, 
  {
    "name": "Middletown", 
    "country": "", 
    "longitude": 0.0, 
    "continent": "", 
    "state": "", 
    "latitude": 0.0, 
    "id": 234
  }, 
  {
    "name": "Bonchurch (Isle of Wight)", 
    "country": "United Kingdom", 
    "longitude": -1.1952449, 
    "continent": "Europe", 
    "state": "England", 
    "latitude": 50.598447, 
    "id": 235
  }, 
  {
    "name": "Massey Farm (Md.)", 
    "country": "United States", 
    "longitude": -75.9053793, 
    "continent": "North America", 
    "state": "Maryland", 
    "latitude": 39.3509248, 
    "id": 236
  }, 
  {
    "name": "Bateman's Point (Newport, R.I.)", 
    "country": "United States", 
    "longitude": -71.3128285, 
    "continent": "North America", 
    "state": "Rhode Island", 
    "latitude": 41.4901024, 
    "id": 237
  }, 
  {
    "name": "Dennis Cottage (Atlantic City, N.J.)", 
    "country": "United States", 
    "longitude": -74.4056612, 
    "continent": "North America", 
    "state": "New Jersey", 
    "latitude": 40.0583238, 
    "id": 238
  }, 
  {
    "name": "Mencola Cottage (Md.)", 
    "country": "United States", 
    "longitude": -76.6412712, 
    "continent": "North America", 
    "state": "Maryland", 
    "latitude": 39.0457549, 
    "id": 239
  }, 
  {
    "name": "Cherrelyn", 
    "country": "", 
    "longitude": 0.0, 
    "continent": "", 
    "state": "", 
    "latitude": 0.0, 
    "id": 240
  }, 
  {
    "name": "Harrogate", 
    "country": "United Kingdom", 
    "longitude": -1.541812, 
    "continent": "Europe", 
    "state": "England", 
    "latitude": 53.99212, 
    "id": 241
  }, 
  {
    "name": "Streshire", 
    "country": "", 
    "longitude": 0.0, 
    "continent": "", 
    "state": "", 
    "latitude": 0.0, 
    "id": 242
  }, 
  {
    "name": "Cliff House", 
    "country": "", 
    "longitude": 0.0, 
    "continent": "", 
    "state": "", 
    "latitude": 0.0, 
    "id": 243
  }, 
  {
    "name": "Lyme Regis", 
    "country": "United Kingdom", 
    "longitude": -2.936639, 
    "continent": "Europe", 
    "state": "England", 
    "latitude": 50.725156, 
    "id": 244
  }, 
  {
    "name": "Wheeling, Virginia", 
    "country": "United States", 
    "longitude": -80.6568942, 
    "continent": "North America", 
    "state": "Ohio", 
    "latitude": 40.4315734, 
    "id": 245
  }, 
  {
    "name": "Riffelberg (Switzerland); Milan (Italy); Lucerne (Switzerland)", 
    "country": "Switzerland", 
    "longitude": 8.3089295, 
    "continent": "Europe", 
    "state": "Luzern", 
    "latitude": 47.0500376, 
    "id": 246
  }, 
  {
    "name": "Chamounix (Switzerland); Martigny (Germany)", 
    "country": "", 
    "longitude": 0.0, 
    "continent": "", 
    "state": "", 
    "latitude": 0.0, 
    "id": 247
  }, 
  {
    "name": "Meadow Farm", 
    "country": "", 
    "longitude": 0.0, 
    "continent": "", 
    "state": "", 
    "latitude": 0.0, 
    "id": 248
  }, 
  {
    "name": "Washington St.", 
    "country": "", 
    "longitude": 0.0, 
    "continent": "", 
    "state": "", 
    "latitude": 0.0, 
    "id": 249
  }, 
  {
    "name": "Walnut Street, Philadelphia", 
    "country": "United States", 
    "longitude": -75.163789, 
    "continent": "North America", 
    "state": "Pennsylvania", 
    "latitude": 39.952335, 
    "id": 250
  }, 
  {
    "name": "Ivy Lodge Cottage", 
    "country": "", 
    "longitude": 0.0, 
    "continent": "", 
    "state": "", 
    "latitude": 0.0, 
    "id": 251
  }, 
  {
    "name": "Lake Minnewaska (N.Y.)", 
    "country": "United States", 
    "longitude": -74.236274, 
    "continent": "North America", 
    "state": "New York", 
    "latitude": 41.7261156, 
    "id": 252
  }, 
  {
    "name": "Woodbourne, Dimock, Susquehanna County(Pa.)", 
    "country": "United States", 
    "longitude": -75.8069082, 
    "continent": "North America", 
    "state": "Pennsylvania", 
    "latitude": 41.745553, 
    "id": 253
  }, 
  {
    "name": "Wheeling (VA)", 
    "country": "", 
    "longitude": 0.0, 
    "continent": "", 
    "state": "", 
    "latitude": 0.0, 
    "id": 254
  }, 
  {
    "name": "Bristol", 
    "country": "United Kingdom", 
    "longitude": -2.58791, 
    "continent": "Europe", 
    "state": "England", 
    "latitude": 51.454513, 
    "id": 255
  }, 
  {
    "name": "Nice (France)", 
    "country": "France", 
    "longitude": 7.2619532, 
    "continent": "Europe", 
    "state": "Provence-Alpes-C?te d'Azur", 
    "latitude": 43.7101728, 
    "id": 256
  }, 
  {
    "name": "Munich (Germany)", 
    "country": "Germany", 
    "longitude": 11.5819806, 
    "continent": "Europe", 
    "state": "Bayern", 
    "latitude": 48.1351253, 
    "id": 257
  }, 
  {
    "name": "Easton, PA", 
    "country": "United States", 
    "longitude": -77.1945247, 
    "continent": "North America", 
    "state": "Pennsylvania", 
    "latitude": 41.2033216, 
    "id": 258
  }, 
  {
    "name": "Salem, New Jersey", 
    "country": "United States", 
    "longitude": -74.4056612, 
    "continent": "North America", 
    "state": "New Jersey", 
    "latitude": 40.0583238, 
    "id": 259
  }, 
  {
    "name": "Mauch Chunk(Pa.)", 
    "country": "United States", 
    "longitude": -75.7280599, 
    "continent": "North America", 
    "state": "Pennsylvania", 
    "latitude": 40.8603938, 
    "id": 260
  }, 
  {
    "name": "Burlington", 
    "country": "", 
    "longitude": 0.0, 
    "continent": "", 
    "state": "", 
    "latitude": 0.0, 
    "id": 261
  }, 
  {
    "name": "Mells (England)", 
    "country": "United Kingdom", 
    "longitude": -2.387315, 
    "continent": "Europe", 
    "state": "England", 
    "latitude": 51.239021, 
    "id": 262
  }, 
  {
    "name": "Zurich, Switzerland", 
    "country": "Switzerland", 
    "longitude": 8.5391825, 
    "continent": "Europe", 
    "state": "Z?rich", 
    "latitude": 47.3686498, 
    "id": 263
  }, 
  {
    "name": "Kingwood", 
    "country": "", 
    "longitude": 0.0, 
    "continent": "", 
    "state": "", 
    "latitude": 0.0, 
    "id": 264
  }, 
  {
    "name": "Zurich (Switzerland)", 
    "country": "Switzerland", 
    "longitude": 8.5391825, 
    "continent": "Europe", 
    "state": "Z?rich", 
    "latitude": 47.3686498, 
    "id": 265
  }, 
  {
    "name": "Stockport (England)", 
    "country": "United Kingdom", 
    "longitude": -2.158843, 
    "continent": "Europe", 
    "state": "England", 
    "latitude": 53.406754, 
    "id": 266
  }, 
  {
    "name": "Cinnamonson (N.J.)", 
    "country": "United States", 
    "longitude": -74.9927693, 
    "continent": "North America", 
    "state": "New Jersey", 
    "latitude": 39.9969646, 
    "id": 267
  }, 
  {
    "name": "Mauch Church", 
    "country": "", 
    "longitude": 0.0, 
    "continent": "", 
    "state": "", 
    "latitude": 0.0, 
    "id": 268
  }, 
  {
    "name": "Oberhofen (Switzerland)", 
    "country": "Switzerland", 
    "longitude": 7.6693742, 
    "continent": "Europe", 
    "state": "Bern", 
    "latitude": 46.730555, 
    "id": 269
  }, 
  {
    "name": "New Orleans (La.)", 
    "country": "United States", 
    "longitude": -90.0715323, 
    "continent": "North America", 
    "state": "Louisiana", 
    "latitude": 29.9510658, 
    "id": 270
  }, 
  {
    "name": "W. Del", 
    "country": "United States", 
    "longitude": -75.5276699, 
    "continent": "North America", 
    "state": "Delaware", 
    "latitude": 38.9108325, 
    "id": 271
  }, 
  {
    "name": "Asticou (Me.)", 
    "country": "United States", 
    "longitude": -68.2816823, 
    "continent": "North America", 
    "state": "Maine", 
    "latitude": 44.3039689, 
    "id": 272
  }, 
  {
    "name": "Funchal (Madeira Islands)", 
    "country": "Portugal", 
    "longitude": -16.9240554, 
    "continent": "Africa", 
    "state": "Regi?o Aut?noma da Madeira", 
    "latitude": 32.6669328, 
    "id": 273
  }, 
  {
    "name": "Sunbury (Northumberland), PA", 
    "country": "United States", 
    "longitude": -77.1945247, 
    "continent": "North America", 
    "state": "Pennsylvania", 
    "latitude": 41.2033216, 
    "id": 274
  }, 
  {
    "name": "Magnolia", 
    "country": "", 
    "longitude": 0.0, 
    "continent": "", 
    "state": "", 
    "latitude": 0.0, 
    "id": 275
  }, 
  {
    "name": "Ausable Chasm, NY", 
    "country": "United States", 
    "longitude": -74.0059413, 
    "continent": "North America", 
    "state": "New York", 
    "latitude": 40.7127837, 
    "id": 276
  }, 
  {
    "name": "Haverford School, near Buck P.O., Old Lancaster Road", 
    "country": "United States", 
    "longitude": -75.3208107, 
    "continent": "North America", 
    "state": "Pennsylvania", 
    "latitude": 40.0022406, 
    "id": 277
  }, 
  {
    "name": "Highland House", 
    "country": "", 
    "longitude": 0.0, 
    "continent": "", 
    "state": "", 
    "latitude": 0.0, 
    "id": 278
  }, 
  {
    "name": "Haverford School", 
    "country": "United States", 
    "longitude": -75.305507, 
    "continent": "North America", 
    "state": "Pennsylvania", 
    "latitude": 40.014304, 
    "id": 279
  }, 
  {
    "name": "Courbance (France)", 
    "country": "France", 
    "longitude": 2.213749, 
    "continent": "Europe", 
    "state": "Limousin", 
    "latitude": 46.227638, 
    "id": 280
  }, 
  {
    "name": "Pittsfield (Mass.)", 
    "country": "United States", 
    "longitude": -73.2453824, 
    "continent": "North America", 
    "state": "Massachusetts", 
    "latitude": 42.4500845, 
    "id": 281
  }, 
  {
    "name": "Woodburne, Susquehanna County (Pa.)", 
    "country": "United States", 
    "longitude": -75.8069082, 
    "continent": "North America", 
    "state": "Pennsylvania", 
    "latitude": 41.745553, 
    "id": 282
  }, 
  {
    "name": "Royal Mail Ship Gallia; Liverpool, England", 
    "country": "United Kingdom", 
    "longitude": -1.1743197, 
    "continent": "Europe", 
    "state": "England", 
    "latitude": 52.3555177, 
    "id": 283
  }, 
  {
    "name": "Auburn Township (Susquehanna County, Pa.)", 
    "country": "United States", 
    "longitude": -77.1945247, 
    "continent": "North America", 
    "state": "Pennsylvania", 
    "latitude": 41.2033216, 
    "id": 284
  }, 
  {
    "name": "Easton Northhampton County Penn", 
    "country": "United States", 
    "longitude": -75.2207323, 
    "continent": "North America", 
    "state": "Pennsylvania", 
    "latitude": 40.688432, 
    "id": 285
  }, 
  {
    "name": "11 Place Reine Mathilde", 
    "country": "", 
    "longitude": 0.0, 
    "continent": "", 
    "state": "", 
    "latitude": 0.0, 
    "id": 286
  }, 
  {
    "name": "Albany, N. Y.", 
    "country": "United States", 
    "longitude": -74.0059413, 
    "continent": "North America", 
    "state": "New York", 
    "latitude": 40.7127837, 
    "id": 287
  }, 
  {
    "name": "Lichfield (England)", 
    "country": "United Kingdom", 
    "longitude": -1.831672, 
    "continent": "Europe", 
    "state": "England", 
    "latitude": 52.681602, 
    "id": 288
  }, 
  {
    "name": "Minnewaska, Ulster County, New York", 
    "country": "United States", 
    "longitude": -74.0059413, 
    "continent": "North America", 
    "state": "New York", 
    "latitude": 40.7127837, 
    "id": 289
  }, 
  {
    "name": "Burlinton, N.J.", 
    "country": "", 
    "longitude": 0.0, 
    "continent": "", 
    "state": "", 
    "latitude": 0.0, 
    "id": 290
  }, 
  {
    "name": "Eatontown, Monmouth County, N.J.", 
    "country": "United States", 
    "longitude": -74.4056612, 
    "continent": "North America", 
    "state": "New Jersey", 
    "latitude": 40.0583238, 
    "id": 291
  }, 
  {
    "name": "Intervale (N.H.)", 
    "country": "United States", 
    "longitude": -71.1400712, 
    "continent": "North America", 
    "state": "New Hampshire", 
    "latitude": 44.0742357, 
    "id": 292
  }, 
  {
    "name": "Sharon (Pa.)", 
    "country": "United States", 
    "longitude": -80.4934035, 
    "continent": "North America", 
    "state": "Pennsylvania", 
    "latitude": 41.2331116, 
    "id": 293
  }, 
  {
    "name": "Saratoga (N.Y.)", 
    "country": "United States", 
    "longitude": -73.6300729, 
    "continent": "North America", 
    "state": "New York", 
    "latitude": 43.0448483, 
    "id": 294
  }, 
  {
    "name": "York Harbor (Me.)", 
    "country": "United States", 
    "longitude": -70.6456077, 
    "continent": "North America", 
    "state": "Maine", 
    "latitude": 43.1367551, 
    "id": 295
  }, 
  {
    "name": "Worcester (Mass.)", 
    "country": "United States", 
    "longitude": -71.8022934, 
    "continent": "North America", 
    "state": "Massachusetts", 
    "latitude": 42.2625932, 
    "id": 296
  }, 
  {
    "name": "Lancaster(Pa.)", 
    "country": "United States", 
    "longitude": -76.3055144, 
    "continent": "North America", 
    "state": "Pennsylvania", 
    "latitude": 40.0378755, 
    "id": 297
  }, 
  {
    "name": "Sansom Square, Philadelphia", 
    "country": "United States", 
    "longitude": -75.163789, 
    "continent": "North America", 
    "state": "Pennsylvania", 
    "latitude": 39.952335, 
    "id": 298
  }, 
  {
    "name": "Lancaster", 
    "country": "", 
    "longitude": 0.0, 
    "continent": "", 
    "state": "", 
    "latitude": 0.0, 
    "id": 299
  }, 
  {
    "name": "Lancaster PA", 
    "country": "United States", 
    "longitude": -76.3055144, 
    "continent": "North America", 
    "state": "Pennsylvania", 
    "latitude": 40.0378755, 
    "id": 300
  }, 
  {
    "name": "19 N Second Street, Philadelphia PA", 
    "country": "United States", 
    "longitude": -75.163789, 
    "continent": "North America", 
    "state": "Pennsylvania", 
    "latitude": 39.952335, 
    "id": 301
  }, 
  {
    "name": "Cambridge (Mass.)", 
    "country": "United States", 
    "longitude": -71.1097335, 
    "continent": "North America", 
    "state": "Massachusetts", 
    "latitude": 42.3736158, 
    "id": 302
  }, 
  {
    "name": "Connymeade (Pa.)", 
    "country": "United States", 
    "longitude": -77.1945247, 
    "continent": "North America", 
    "state": "Pennsylvania", 
    "latitude": 41.2033216, 
    "id": 303
  }, 
  {
    "name": "Ann Arbor", 
    "country": "United States", 
    "longitude": -83.7430378, 
    "continent": "North America", 
    "state": "Michigan", 
    "latitude": 42.2808256, 
    "id": 304
  }, 
  {
    "name": "Susquehannah County, PA", 
    "country": "United States", 
    "longitude": -77.1945247, 
    "continent": "North America", 
    "state": "Pennsylvania", 
    "latitude": 41.2033216, 
    "id": 305
  }, 
  {
    "name": "Greensboro (N.C.)", 
    "country": "United States", 
    "longitude": -79.7919754, 
    "continent": "North America", 
    "state": "North Carolina", 
    "latitude": 36.0726354, 
    "id": 306
  }, 
  {
    "name": "Birchcliffe, Ontario, Canada", 
    "country": "Canada", 
    "longitude": -85.3232139, 
    "continent": "North America", 
    "state": "Ontario", 
    "latitude": 51.253775, 
    "id": 307
  }, 
  {
    "name": "Gill House, Henderson Harbor (N.Y.)", 
    "country": "United States", 
    "longitude": -76.2018719, 
    "continent": "North America", 
    "state": "New York", 
    "latitude": 43.8647846, 
    "id": 308
  }, 
  {
    "name": "Woodbourne, Dimock(Pa.)", 
    "country": "United States", 
    "longitude": -75.8982517, 
    "continent": "North America", 
    "state": "Pennsylvania", 
    "latitude": 41.7464652, 
    "id": 309
  }, 
  {
    "name": "272 Spruce Street, Philadelphia, PA", 
    "country": "United States", 
    "longitude": -77.1945247, 
    "continent": "North America", 
    "state": "Pennsylvania", 
    "latitude": 41.2033216, 
    "id": 310
  }, 
  {
    "name": "Brielle (N.J.)", 
    "country": "United States", 
    "longitude": -74.0565263, 
    "continent": "North America", 
    "state": "New Jersey", 
    "latitude": 40.1078931, 
    "id": 311
  }, 
  {
    "name": "The Clifton House, Niagara Falls (N.Y. and Ont.)", 
    "country": "United States", 
    "longitude": -79.0377388, 
    "continent": "North America", 
    "state": "New York", 
    "latitude": 43.0962143, 
    "id": 312
  }, 
  {
    "name": "Sharon Inn, Sharon, Connecticut", 
    "country": "United States", 
    "longitude": -73.087749, 
    "continent": "North America", 
    "state": "Connecticut", 
    "latitude": 41.6032207, 
    "id": 313
  }, 
  {
    "name": "Trenton Boarding School", 
    "country": "United States", 
    "longitude": -74.7429384, 
    "continent": "North America", 
    "state": "New Jersey", 
    "latitude": 40.2170534, 
    "id": 314
  }, 
  {
    "name": "Wolfeboro, NH", 
    "country": "United States", 
    "longitude": -71.2128, 
    "continent": "North America", 
    "state": "New Hampshire", 
    "latitude": 43.5842, 
    "id": 315
  }, 
  {
    "name": "Caen (France)", 
    "country": "France", 
    "longitude": -0.370679, 
    "continent": "Europe", 
    "state": "Basse-Normandie", 
    "latitude": 49.182863, 
    "id": 316
  }, 
  {
    "name": "Surf Haven", 
    "country": "", 
    "longitude": 0.0, 
    "continent": "", 
    "state": "", 
    "latitude": 0.0, 
    "id": 317
  }, 
  {
    "name": "York Harbor, Maine", 
    "country": "United States", 
    "longitude": -69.4454689, 
    "continent": "North America", 
    "state": "Maine", 
    "latitude": 45.253783, 
    "id": 318
  }, 
  {
    "name": "Petersham, Mass.", 
    "country": "United States", 
    "longitude": -72.186669, 
    "continent": "North America", 
    "state": "Massachusetts", 
    "latitude": 42.4837752, 
    "id": 319
  }, 
  {
    "name": "Burlington (N.J.)", 
    "country": "United States", 
    "longitude": -74.8648873, 
    "continent": "North America", 
    "state": "New Jersey", 
    "latitude": 40.071222, 
    "id": 320
  }, 
  {
    "name": "Care of H & A Cope, Philadelphia", 
    "country": "United States", 
    "longitude": -75.163789, 
    "continent": "North America", 
    "state": "Pennsylvania", 
    "latitude": 39.952335, 
    "id": 321
  }, 
  {
    "name": "Wilkes-Barre(Pa.)", 
    "country": "United States", 
    "longitude": -75.8813075, 
    "continent": "North America", 
    "state": "Pennsylvania", 
    "latitude": 41.2459149, 
    "id": 322
  }, 
  {
    "name": "Alhambra Hotel, Cimiez-Nice, France", 
    "country": "France", 
    "longitude": 7.2619532, 
    "continent": "Europe", 
    "state": "Provence-Alpes-C?te d'Azur", 
    "latitude": 43.7101728, 
    "id": 323
  }, 
  {
    "name": "Redwood Cottage, Newport, Rhode Island", 
    "country": "United States", 
    "longitude": -71.4774291, 
    "continent": "North America", 
    "state": "Rhode Island", 
    "latitude": 41.5800945, 
    "id": 324
  }, 
  {
    "name": "Plymouth (Pa.)", 
    "country": "United States", 
    "longitude": -75.9446428, 
    "continent": "North America", 
    "state": "Pennsylvania", 
    "latitude": 41.2403596, 
    "id": 325
  }, 
  {
    "name": "Laurel House, Catskill, NY", 
    "country": "United States", 
    "longitude": -74.0059413, 
    "continent": "North America", 
    "state": "New York", 
    "latitude": 40.7127837, 
    "id": 326
  }, 
  {
    "name": "Wildmere, Lake Minnewaska, NY", 
    "country": "United States", 
    "longitude": -74.0059413, 
    "continent": "North America", 
    "state": "New York", 
    "latitude": 40.7127837, 
    "id": 327
  }, 
  {
    "name": "Bliss Cottage", 
    "country": "", 
    "longitude": 0.0, 
    "continent": "", 
    "state": "", 
    "latitude": 0.0, 
    "id": 328
  }, 
  {
    "name": "Prospect St.", 
    "country": "", 
    "longitude": 0.0, 
    "continent": "", 
    "state": "", 
    "latitude": 0.0, 
    "id": 329
  }, 
  {
    "name": "6 Cavendish Crescent", 
    "country": "", 
    "longitude": 0.0, 
    "continent": "", 
    "state": "", 
    "latitude": 0.0, 
    "id": 330
  }, 
  {
    "name": "Elizabethtown, N.Y.", 
    "country": "United States", 
    "longitude": -74.0059413, 
    "continent": "North America", 
    "state": "New York", 
    "latitude": 40.7127837, 
    "id": 331
  }, 
  {
    "name": "Penn College, Buck Tavern(Pa.)", 
    "country": "United States", 
    "longitude": -77.1945247, 
    "continent": "North America", 
    "state": "Pennsylvania", 
    "latitude": 41.2033216, 
    "id": 332
  }, 
  {
    "name": "102 South 4th St, Philadelphia, PA", 
    "country": "United States", 
    "longitude": -77.1945247, 
    "continent": "North America", 
    "state": "Pennsylvania", 
    "latitude": 41.2033216, 
    "id": 333
  }, 
  {
    "name": "Saratoga, NY", 
    "country": "United States", 
    "longitude": -74.0059413, 
    "continent": "North America", 
    "state": "New York", 
    "latitude": 40.7127837, 
    "id": 334
  }, 
  {
    "name": "Hotel Suisse, Via Veneto, Rome, Italy", 
    "country": "Italy", 
    "longitude": 12.4801802, 
    "continent": "Europe", 
    "state": "Lazio", 
    "latitude": 41.8723889, 
    "id": 335
  }, 
  {
    "name": "Woodford, England", 
    "country": "United Kingdom", 
    "longitude": -1.1743197, 
    "continent": "Europe", 
    "state": "England", 
    "latitude": 52.3555177, 
    "id": 336
  }, 
  {
    "name": "Ocean House, Cape Island, NJ", 
    "country": "United States", 
    "longitude": -74.4056612, 
    "continent": "North America", 
    "state": "New Jersey", 
    "latitude": 40.0583238, 
    "id": 337
  }, 
  {
    "name": "Lake George, New York", 
    "country": "United States", 
    "longitude": -74.0059413, 
    "continent": "North America", 
    "state": "New York", 
    "latitude": 40.7127837, 
    "id": 338
  }, 
  {
    "name": "Savannah (Ga.)", 
    "country": "United States", 
    "longitude": -81.0998342, 
    "continent": "North America", 
    "state": "Georgia", 
    "latitude": 32.0835407, 
    "id": 339
  }, 
  {
    "name": "Glen House, White Mountain, NH", 
    "country": "United States", 
    "longitude": -71.5723953, 
    "continent": "North America", 
    "state": "New Hampshire", 
    "latitude": 43.1938516, 
    "id": 340
  }, 
  {
    "name": "Lancaster (Pa.)", 
    "country": "United States", 
    "longitude": -76.3055144, 
    "continent": "North America", 
    "state": "Pennsylvania", 
    "latitude": 40.0378755, 
    "id": 341
  }, 
  {
    "name": "Fair Hill, Arch Street, Philadelphia (Pa.)", 
    "country": "United States", 
    "longitude": -75.163789, 
    "continent": "North America", 
    "state": "Pennsylvania", 
    "latitude": 39.952335, 
    "id": 342
  }, 
  {
    "name": "Newport (R.I)", 
    "country": "United States", 
    "longitude": -71.3128285, 
    "continent": "North America", 
    "state": "Rhode Island", 
    "latitude": 41.4901024, 
    "id": 343
  }, 
  {
    "name": "[Philadelphia (Pa.)]", 
    "country": "United States", 
    "longitude": -75.163789, 
    "continent": "North America", 
    "state": "Pennsylvania", 
    "latitude": 39.952335, 
    "id": 344
  }, 
  {
    "name": "Madeira (Madeira Islands)", 
    "country": "Portugal", 
    "longitude": -16.9594723, 
    "continent": "Africa", 
    "state": "Regi?o Aut?noma da Madeira", 
    "latitude": 32.7607074, 
    "id": 345
  }, 
  {
    "name": "Conanicut (R.I.)", 
    "country": "United States", 
    "longitude": -71.3758871, 
    "continent": "North America", 
    "state": "Rhode Island", 
    "latitude": 41.5376018, 
    "id": 346
  }, 
  {
    "name": "Philaelphia (Pa.)", 
    "country": "United States", 
    "longitude": -75.163789, 
    "continent": "North America", 
    "state": "Pennsylvania", 
    "latitude": 39.952335, 
    "id": 347
  }, 
  {
    "name": "Woodbourne (Susquehann County(Pa.).)", 
    "country": "United States", 
    "longitude": -77.1945247, 
    "continent": "North America", 
    "state": "Pennsylvania", 
    "latitude": 41.2033216, 
    "id": 348
  }, 
  {
    "name": "The Ruisseaumont, Lake Placid, Essex Co. (N.Y.)", 
    "country": "United States", 
    "longitude": -74.0059413, 
    "continent": "North America", 
    "state": "New York", 
    "latitude": 40.7127837, 
    "id": 349
  }, 
  {
    "name": "Montrose (Pa.)", 
    "country": "United States", 
    "longitude": -75.8771388, 
    "continent": "North America", 
    "state": "Pennsylvania", 
    "latitude": 41.8339653, 
    "id": 350
  }, 
  {
    "name": "Magnolia (Mass.)", 
    "country": "United States", 
    "longitude": -70.7106005, 
    "continent": "North America", 
    "state": "Massachusetts", 
    "latitude": 42.5737067, 
    "id": 351
  }, 
  {
    "name": "Mulford", 
    "country": "", 
    "longitude": 0.0, 
    "continent": "", 
    "state": "", 
    "latitude": 0.0, 
    "id": 352
  }, 
  {
    "name": "Easton's Point (Newport, R.I.)", 
    "country": "United States", 
    "longitude": -71.3128285, 
    "continent": "North America", 
    "state": "Rhode Island", 
    "latitude": 41.4901024, 
    "id": 353
  }, 
  {
    "name": "Magnolia (Gloucester, Mass.)", 
    "country": "United States", 
    "longitude": -70.7106005, 
    "continent": "North America", 
    "state": "Massachusetts", 
    "latitude": 42.5737067, 
    "id": 354
  }, 
  {
    "name": "Manunka Chunk Junction (N.J.)", 
    "country": "United States", 
    "longitude": -74.4056612, 
    "continent": "North America", 
    "state": "New Jersey", 
    "latitude": 40.0583238, 
    "id": 355
  }, 
  {
    "name": "Locust Grove, Rockway (N.J.)", 
    "country": "United States", 
    "longitude": -74.4056612, 
    "continent": "North America", 
    "state": "New Jersey", 
    "latitude": 40.0583238, 
    "id": 356
  }, 
  {
    "name": "Spring Lake (N.J.)", 
    "country": "United States", 
    "longitude": -74.0281925, 
    "continent": "North America", 
    "state": "New Jersey", 
    "latitude": 40.1534476, 
    "id": 357
  }, 
  {
    "name": "Mt Desert (Me.)", 
    "country": "United States", 
    "longitude": -68.3193614, 
    "continent": "North America", 
    "state": "Maine", 
    "latitude": 44.3357884, 
    "id": 358
  }, 
  {
    "name": "Plymouth (Mass.)", 
    "country": "United States", 
    "longitude": -70.6672621, 
    "continent": "North America", 
    "state": "Massachusetts", 
    "latitude": 41.9584457, 
    "id": 359
  }, 
  {
    "name": "Mt. Pleasant (Ohio)", 
    "country": "United States", 
    "longitude": -80.7978631, 
    "continent": "North America", 
    "state": "Ohio", 
    "latitude": 40.1753485, 
    "id": 360
  }, 
  {
    "name": "London; Paris", 
    "country": "United Kingdom", 
    "longitude": -0.2704021, 
    "continent": "Europe", 
    "state": "England", 
    "latitude": 51.4018669, 
    "id": 361
  }, 
  {
    "name": "Fowler's Rocks (Conanicut Island, R.I.)", 
    "country": "United States", 
    "longitude": -71.3758871, 
    "continent": "North America", 
    "state": "Rhode Island", 
    "latitude": 41.5376018, 
    "id": 362
  }, 
  {
    "name": "Geneva (N.Y.)", 
    "country": "United States", 
    "longitude": -76.985557, 
    "continent": "North America", 
    "state": "New York", 
    "latitude": 42.8679836, 
    "id": 363
  }, 
  {
    "name": "2nd Beach (Newport, R.I)", 
    "country": "United States", 
    "longitude": -71.3128285, 
    "continent": "North America", 
    "state": "Rhode Island", 
    "latitude": 41.4901024, 
    "id": 364
  }, 
  {
    "name": "Hopatcong, N.J.", 
    "country": "United States", 
    "longitude": -74.4056612, 
    "continent": "North America", 
    "state": "New Jersey", 
    "latitude": 40.0583238, 
    "id": 365
  }, 
  {
    "name": "Mossgiel (R.I.)", 
    "country": "", 
    "longitude": 0.0, 
    "continent": "", 
    "state": "", 
    "latitude": 0.0, 
    "id": 366
  }, 
  {
    "name": "Mossgiel", 
    "country": "", 
    "longitude": 0.0, 
    "continent": "", 
    "state": "", 
    "latitude": 0.0, 
    "id": 367
  }, 
  {
    "name": "Fowlers' Rocks", 
    "country": "United States", 
    "longitude": -71.3758871, 
    "continent": "North America", 
    "state": "Rhode Island", 
    "latitude": 41.5376018, 
    "id": 368
  }, 
  {
    "name": "Overlook", 
    "country": "", 
    "longitude": 0.0, 
    "continent": "", 
    "state": "", 
    "latitude": 0.0, 
    "id": 369
  }, 
  {
    "name": "North East (Me.)", 
    "country": "United States", 
    "longitude": -69.4454689, 
    "continent": "North America", 
    "state": "Maine", 
    "latitude": 45.253783, 
    "id": 370
  }, 
  {
    "name": "Wayne Junction, Germantown, Philadelphia (Pa.)", 
    "country": "United States", 
    "longitude": -75.163789, 
    "continent": "North America", 
    "state": "Pennsylvania", 
    "latitude": 39.952335, 
    "id": 371
  }, 
  {
    "name": "Liberty (Va.)", 
    "country": "United States", 
    "longitude": -77.351348, 
    "continent": "North America", 
    "state": "Virginia", 
    "latitude": 38.145019, 
    "id": 372
  }, 
  {
    "name": "Maryland", 
    "country": "United States", 
    "longitude": -76.6412712, 
    "continent": "North America", 
    "state": "Maryland", 
    "latitude": 39.0457549, 
    "id": 373
  }, 
  {
    "name": "North-East Harbor", 
    "country": "United States", 
    "longitude": -68.2903234, 
    "continent": "North America", 
    "state": "Maine", 
    "latitude": 44.2942813, 
    "id": 374
  }, 
  {
    "name": "Auburn (Schuylkill County(Pa.).)", 
    "country": "United States", 
    "longitude": -76.093272, 
    "continent": "North America", 
    "state": "Pennsylvania", 
    "latitude": 40.5984249, 
    "id": 375
  }, 
  {
    "name": "Quebec (Province)", 
    "country": "Canada", 
    "longitude": -73.5491361, 
    "continent": "North America", 
    "state": "Quebec", 
    "latitude": 52.9399159, 
    "id": 376
  }, 
  {
    "name": "Asticou", 
    "country": "", 
    "longitude": 0.0, 
    "continent": "", 
    "state": "", 
    "latitude": 0.0, 
    "id": 377
  }, 
  {
    "name": "Richmond (Ind.)", 
    "country": "United States", 
    "longitude": -84.8902382, 
    "continent": "North America", 
    "state": "Indiana", 
    "latitude": 39.8289369, 
    "id": 378
  }, 
  {
    "name": "Mauch Chunk (Pa.)", 
    "country": "United States", 
    "longitude": -75.7280599, 
    "continent": "North America", 
    "state": "Pennsylvania", 
    "latitude": 40.8603938, 
    "id": 379
  }, 
  {
    "name": "Dinnock P.O., Pennsylvania", 
    "country": "United States", 
    "longitude": -77.1945247, 
    "continent": "North America", 
    "state": "Pennsylvania", 
    "latitude": 41.2033216, 
    "id": 380
  }, 
  {
    "name": "Hereford (England)", 
    "country": "United Kingdom", 
    "longitude": -2.715974, 
    "continent": "Europe", 
    "state": "England", 
    "latitude": 52.056398, 
    "id": 381
  }, 
  {
    "name": "Petersburg (Va.)", 
    "country": "United States", 
    "longitude": -77.4019267, 
    "continent": "North America", 
    "state": "Virginia", 
    "latitude": 37.2279279, 
    "id": 382
  }, 
  {
    "name": "Farmville (Va.)", 
    "country": "United States", 
    "longitude": -78.3919401, 
    "continent": "North America", 
    "state": "Virginia", 
    "latitude": 37.3020965, 
    "id": 383
  }, 
  {
    "name": "Lynchburg (Va.)", 
    "country": "United States", 
    "longitude": -79.1422464, 
    "continent": "North America", 
    "state": "Virginia", 
    "latitude": 37.4137536, 
    "id": 384
  }, 
  {
    "name": "Richmond (Va.)", 
    "country": "United States", 
    "longitude": -77.4360481, 
    "continent": "North America", 
    "state": "Virginia", 
    "latitude": 37.5407246, 
    "id": 385
  }, 
  {
    "name": "Mt. Desert (Me. : Town)", 
    "country": "United States", 
    "longitude": -68.3193614, 
    "continent": "North America", 
    "state": "Maine", 
    "latitude": 44.3357884, 
    "id": 386
  }, 
  {
    "name": "Philadelphia (pa", 
    "country": "United States", 
    "longitude": -75.163789, 
    "continent": "North America", 
    "state": "Pennsylvania", 
    "latitude": 39.952335, 
    "id": 387
  }, 
  {
    "name": "Europe", 
    "country": "", 
    "longitude": 15.2551187, 
    "continent": "", 
    "state": "", 
    "latitude": 54.5259614, 
    "id": 388
  }, 
  {
    "name": "Muncy (Pa.)", 
    "country": "United States", 
    "longitude": -76.7855152, 
    "continent": "North America", 
    "state": "Pennsylvania", 
    "latitude": 41.2056373, 
    "id": 389
  }, 
  {
    "name": "London Grove (Pa. : Township)", 
    "country": "United States", 
    "longitude": -75.811026, 
    "continent": "North America", 
    "state": "Pennsylvania", 
    "latitude": 39.815236, 
    "id": 390
  }, 
  {
    "name": "Camaldoli (Italy)", 
    "country": "Italy", 
    "longitude": 11.8203778, 
    "continent": "Europe", 
    "state": "Toscana", 
    "latitude": 43.7944916, 
    "id": 391
  }, 
  {
    "name": "Lake Teedyuskung (Pa.)", 
    "country": "United States", 
    "longitude": -75.0939651, 
    "continent": "North America", 
    "state": "Pennsylvania", 
    "latitude": 41.5174859, 
    "id": 392
  }, 
  {
    "name": "Hawley (Pa.)", 
    "country": "United States", 
    "longitude": -75.1821189, 
    "continent": "North America", 
    "state": "Pennsylvania", 
    "latitude": 41.4759224, 
    "id": 393
  }, 
  {
    "name": "Dundaf (Pa.)", 
    "country": "United States", 
    "longitude": -75.5515744, 
    "continent": "North America", 
    "state": "Pennsylvania", 
    "latitude": 41.6539704, 
    "id": 394
  }, 
  {
    "name": "Avebury (England)", 
    "country": "United Kingdom", 
    "longitude": -1.853046, 
    "continent": "Europe", 
    "state": "England", 
    "latitude": 51.429456, 
    "id": 395
  }, 
  {
    "name": "Giessbach (Switzerland)", 
    "country": "Switzerland", 
    "longitude": 8.02563, 
    "continent": "Europe", 
    "state": "Bern", 
    "latitude": 46.73553, 
    "id": 396
  }, 
  {
    "name": "Aberfoyle (Scotland)", 
    "country": "United Kingdom", 
    "longitude": -4.387737, 
    "continent": "Europe", 
    "state": "Scotland", 
    "latitude": 56.181314, 
    "id": 397
  }, 
  {
    "name": "Swallowfield", 
    "country": "United Kingdom", 
    "longitude": -0.96065, 
    "continent": "Europe", 
    "state": "England", 
    "latitude": 51.379406, 
    "id": 398
  }, 
  {
    "name": "Berkley (Md.)", 
    "country": "United States", 
    "longitude": -76.20917, 
    "continent": "North America", 
    "state": "Maryland", 
    "latitude": 39.66139, 
    "id": 399
  }, 
  {
    "name": "Keswick (Cumbria, England)", 
    "country": "United Kingdom", 
    "longitude": -1.1743197, 
    "continent": "Europe", 
    "state": "England", 
    "latitude": 52.3555177, 
    "id": 400
  }, 
  {
    "name": "Holderness (N.H. : Town)", 
    "country": "United States", 
    "longitude": -71.5884095, 
    "continent": "North America", 
    "state": "New Hampshire", 
    "latitude": 43.7320175, 
    "id": 401
  }, 
  {
    "name": "Philadelpia (Pa.)", 
    "country": "United States", 
    "longitude": -75.163789, 
    "continent": "North America", 
    "state": "Pennsylvania", 
    "latitude": 39.952335, 
    "id": 402
  }, 
  {
    "name": "Elizabeth City county (Va.)", 
    "country": "United States", 
    "longitude": -76.6877339, 
    "continent": "North America", 
    "state": "Virginia", 
    "latitude": 37.23513, 
    "id": 403
  }, 
  {
    "name": "Aubury (Pa.)", 
    "country": "United States", 
    "longitude": -80.0689776, 
    "continent": "North America", 
    "state": "Pennsylvania", 
    "latitude": 41.986842, 
    "id": 404
  }, 
  {
    "name": "Auburndale (Mass.)", 
    "country": "United States", 
    "longitude": -71.2471097, 
    "continent": "North America", 
    "state": "Massachusetts", 
    "latitude": 42.3479782, 
    "id": 405
  }, 
  {
    "name": "Leicester (Mass.)", 
    "country": "United States", 
    "longitude": -71.9086843, 
    "continent": "North America", 
    "state": "Massachusetts", 
    "latitude": 42.245926, 
    "id": 406
  }, 
  {
    "name": "Lakewood", 
    "country": "", 
    "longitude": 0.0, 
    "continent": "", 
    "state": "", 
    "latitude": 0.0, 
    "id": 407
  }, 
  {
    "name": "Camden (S.C.)", 
    "country": "United States", 
    "longitude": -80.6070237, 
    "continent": "North America", 
    "state": "South Carolina", 
    "latitude": 34.2465393, 
    "id": 408
  }, 
  {
    "name": "East Northfield (Mass.)", 
    "country": "United States", 
    "longitude": -72.4528885, 
    "continent": "North America", 
    "state": "Massachusetts", 
    "latitude": 42.6959093, 
    "id": 409
  }, 
  {
    "name": "Charlottesville (Va.)", 
    "country": "United States", 
    "longitude": -78.4766781, 
    "continent": "North America", 
    "state": "Virginia", 
    "latitude": 38.0293059, 
    "id": 410
  }, 
  {
    "name": "Camden (N.J.)", 
    "country": "United States", 
    "longitude": -75.1196199, 
    "continent": "North America", 
    "state": "New Jersey", 
    "latitude": 39.9259463, 
    "id": 411
  }, 
  {
    "name": "Hot Springs (Va.)", 
    "country": "United States", 
    "longitude": -79.831587, 
    "continent": "North America", 
    "state": "Virginia", 
    "latitude": 37.9993993, 
    "id": 412
  }, 
  {
    "name": "Bucks Tavern (Haverford Township, Pa.)", 
    "country": "United States", 
    "longitude": -77.1945247, 
    "continent": "North America", 
    "state": "Pennsylvania", 
    "latitude": 41.2033216, 
    "id": 413
  }, 
  {
    "name": "Fowlers Rocks", 
    "country": "United States", 
    "longitude": -71.3758871, 
    "continent": "North America", 
    "state": "Rhode Island", 
    "latitude": 41.5376018, 
    "id": 414
  }, 
  {
    "name": "Woodstown (N.J.)", 
    "country": "United States", 
    "longitude": -75.3282454, 
    "continent": "North America", 
    "state": "New Jersey", 
    "latitude": 39.6515027, 
    "id": 415
  }, 
  {
    "name": "Jamestown, R.I.", 
    "country": "United States", 
    "longitude": -71.3672755, 
    "continent": "North America", 
    "state": "Rhode Island", 
    "latitude": 41.4970465, 
    "id": 416
  }, 
  {
    "name": "Awbury?", 
    "country": "", 
    "longitude": 0.0, 
    "continent": "", 
    "state": "", 
    "latitude": 0.0, 
    "id": 417
  }, 
  {
    "name": "New Garden", 
    "country": "United States", 
    "longitude": -75.7669, 
    "continent": "North America", 
    "state": "Pennsylvania", 
    "latitude": 39.8356, 
    "id": 418
  }
]